{
  "PL0001": { "name": "Calcutta, India", "lat": 22.5726, "lon": 88.3639 },
  "PL0002": { "name": "Phultala, Bangladesh", "lat": 22.9750, "lon": 89.4583 },
  "PL0003": { "name": "Dehradun, India", "lat": 30.345, "lon": 78.029 },
  "PL0004": { "name": "London, Great Britain", "lat": 51.515556, "lon": -0.093056 },
  "PL0004": { "name": "Jessore, Bangladesh", "lat": 23.167, "lon": 89.209 },
}